City_ID,City,Lat,Lng,Max Temp,Humidity,Cloudiness,Wind Speed,Country,Date
0,hermanus,-34.4187,19.2345,14.89,72,100,11.58,ZA,2023-06-12
1,todos santos,23.45,-110.2167,19.47,64,0,3.3,MX,2023-06-12
2,port lincoln,-34.7333,135.8667,13.57,70,76,8.93,AU,2023-06-12
3,acajutla,13.5928,-89.8275,26.98,87,97,2.82,SV,2023-06-12
4,iqaluit,63.7506,-68.5145,0.85,80,75,6.71,CA,2023-06-12
5,igarka,67.4667,86.5833,11.22,73,100,4.12,RU,2023-06-12
6,port-aux-francais,-49.35,70.2167,5.99,89,100,12.81,TF,2023-06-12
7,thompson,55.7435,-97.8558,16.09,77,75,2.06,CA,2023-06-12
8,ushuaia,-54.8,-68.3,4.81,87,75,13.38,AR,2023-06-12
9,telese,41.2173,14.5277,27.45,64,34,0.78,IT,2023-06-12
10,palikir - national government center,6.9248,158.1611,28.41,79,100,2.57,FM,2023-06-12
11,adamstown,-25.066,-130.1015,20.24,63,38,4.76,PN,2023-06-12
12,afaahiti,-17.75,-149.2833,21.93,66,90,7.24,PF,2023-06-12
13,waitangi,-43.9535,-176.5597,11.01,74,100,9.71,NZ,2023-06-12
14,papatowai,-46.5619,169.4708,10.24,89,63,6.36,NZ,2023-06-12
15,grytviken,-54.2811,-36.5092,-0.51,88,100,2.39,GS,2023-06-12
16,west island,-12.1568,96.8225,26.99,78,75,9.76,CC,2023-06-12
17,hithadhoo,-0.6,73.0833,28.68,73,100,2.99,MV,2023-06-12
18,yellowknife,62.456,-114.3525,4.29,75,75,5.14,CA,2023-06-12
19,marine corps base hawaii - mcbh,21.4453,-157.7513,26.98,76,100,4.63,US,2023-06-12
20,nchelenge,-9.3451,28.734,26.98,40,94,2.75,ZM,2023-06-12
21,vilyuchinsk,52.9306,158.4028,11.15,69,0,3.06,RU,2023-06-12
22,kingston,17.997,-76.7936,31.25,74,20,7.2,JM,2023-06-12
23,ust'-talovka,50.5493,81.85,21.2,49,0,5.25,KZ,2023-06-12
24,puerto baquerizo moreno,-0.9,-89.6,25.64,77,100,6.2,EC,2023-06-12
25,burang,30.25,81.1667,9.07,70,41,2.89,CN,2023-06-12
26,ciechocinek,52.8791,18.7951,22.01,31,6,5.39,PL,2023-06-12
27,port alfred,-33.5906,26.891,16.77,69,70,3.58,ZA,2023-06-12
28,rongelap,11.1635,166.8941,27.8,84,60,8.88,MH,2023-06-12
29,chonchi,-42.6128,-73.8092,6.18,94,12,1.55,CL,2023-06-12
30,beitbridge,-22.2167,30.0,30.14,21,3,1.26,ZW,2023-06-12
31,geraldton,-28.7667,114.6,11.23,82,0,3.09,AU,2023-06-12
32,uturoa,-16.7333,-151.4333,27.03,71,20,7.63,PF,2023-06-12
33,udachny,66.4167,112.4,11.92,43,7,3.32,RU,2023-06-12
34,gizo,-8.103,156.8419,27.89,79,16,1.69,SB,2023-06-12
35,banda aceh,5.5577,95.3222,27.79,79,14,6.19,ID,2023-06-12
36,dhari,21.3333,71.0167,27.32,83,100,10.24,IN,2023-06-12
37,puerto armuelles,8.2833,-82.8667,27.87,88,28,2.24,PA,2023-06-12
38,richards bay,-28.783,32.0377,26.01,36,85,5.98,ZA,2023-06-12
39,fort st. john,56.2499,-120.8529,9.94,71,100,2.57,CA,2023-06-12
40,fort mcmurray,56.7268,-111.381,11.77,66,0,3.09,CA,2023-06-12
41,sumbe,-11.2061,13.8437,24.82,74,12,4.2,AO,2023-06-12
42,riohacha,11.5444,-72.9072,30.06,70,20,8.23,CO,2023-06-12
43,nguigmi,14.2495,13.1092,34.42,40,5,2.69,NE,2023-06-12
44,kapuskasing,49.4169,-82.4331,12.05,71,100,3.09,CA,2023-06-12
45,ilulissat,69.2167,-51.1,1.01,93,100,5.14,GL,2023-06-12
46,wailua homesteads,22.0669,-159.378,23.44,90,75,4.12,US,2023-06-12
47,mountain home,43.133,-115.6912,15.08,84,75,2.57,US,2023-06-12
48,hotan,37.0997,79.9269,34.87,9,16,6.13,CN,2023-06-12
49,waingapu,-9.6567,120.2641,24.32,80,16,6.35,ID,2023-06-12
50,tolanaro,-25.0319,46.9987,26.04,69,20,6.17,MG,2023-06-12
51,klyuchi,52.2667,79.1667,25.36,38,41,5.16,RU,2023-06-12
52,bubaque,11.2833,-15.8333,27.59,79,100,4.56,GW,2023-06-12
53,noshiro,40.2039,140.0242,19.03,92,100,1.84,JP,2023-06-12
54,tura,25.5198,90.2201,24.87,88,0,1.71,IN,2023-06-12
55,enewetak,11.3474,162.3373,27.93,80,99,7.98,MH,2023-06-12
56,swakopmund,-22.6833,14.5333,20.47,78,10,0.89,NA,2023-06-12
57,sisimiut,66.9395,-53.6735,0.49,96,98,11.44,GL,2023-06-12
58,hawaiian paradise park,19.5933,-154.9731,21.13,91,0,1.54,US,2023-06-12
59,puerto natales,-51.7236,-72.4875,5.25,60,0,1.54,CL,2023-06-12
60,asau,46.4333,26.4,13.51,72,99,3.09,RO,2023-06-12
61,longyearbyen,78.2186,15.6401,2.91,70,75,7.72,SJ,2023-06-12
62,avarua,-21.2078,-159.775,21.03,100,100,2.06,CK,2023-06-12
63,qaqortoq,60.7167,-46.0333,8.19,59,97,1.08,GL,2023-06-12
64,bonny,4.4522,7.1681,24.76,78,100,1.48,NG,2023-06-12
65,mengibar,37.9701,-3.7965,31.02,29,25,4.9,ES,2023-06-12
66,albany,42.6001,-73.9662,22.32,76,100,0.89,US,2023-06-12
67,galesong,-5.3166,119.3661,26.01,80,100,4.03,ID,2023-06-12
68,port elizabeth,-33.918,25.5701,18.39,57,20,14.4,ZA,2023-06-12
69,bodo,67.28,14.405,12.02,89,100,7.72,NO,2023-06-12
70,marmaris,36.855,28.2742,26.97,60,11,4.43,TR,2023-06-12
71,fale old settlement,-9.3852,-171.2468,28.48,77,100,6.5,TK,2023-06-12
72,lebu,-37.6167,-73.65,6.76,82,3,8.28,CL,2023-06-12
73,kayangel,8.0823,134.7173,28.44,79,66,6.33,PW,2023-06-12
74,saipan,15.1355,145.701,28.39,100,20,4.02,MP,2023-06-12
75,zaltan,32.947,11.8665,27.89,44,0,4.74,LY,2023-06-12
76,hamilton,39.1834,-84.5333,17.83,86,75,4.63,US,2023-06-12
77,tegueste,28.5167,-16.3167,22.77,83,75,2.57,ES,2023-06-12
78,nuku'alofa,-21.1333,-175.2,19.19,94,40,1.03,TO,2023-06-12
79,puerto ayora,-0.7393,-90.3518,26.42,89,100,4.92,EC,2023-06-12
80,talnakh,69.4865,88.3972,11.23,84,100,5.39,RU,2023-06-12
81,missoula,47.0166,-113.8009,11.03,94,13,0.65,US,2023-06-12
82,santiago de cao,-7.9589,-79.2392,22.07,83,20,3.6,PE,2023-06-12
83,margaret river,-33.95,115.0667,15.33,71,67,5.43,AU,2023-06-12
84,keflavik,64.0049,-22.5624,9.24,71,75,4.12,IS,2023-06-12
85,port mathurin,-19.6833,63.4167,24.96,73,6,8.56,MU,2023-06-12
86,arraial do cabo,-22.9661,-42.0278,25.98,69,0,6.17,BR,2023-06-12
87,bethel,41.3712,-73.414,23.02,78,40,2.57,US,2023-06-12
88,baker city,44.7749,-117.8344,15.33,88,0,2.06,US,2023-06-12
89,ujae,8.9322,165.7642,28.61,79,96,8.91,MH,2023-06-12
90,turiacu,-1.6633,-45.3717,28.57,73,0,2.72,BR,2023-06-12
91,kattivakkam,13.2167,80.3167,34.05,79,87,6.48,IN,2023-06-12
92,isla vista,34.4133,-119.861,15.94,89,100,0.0,US,2023-06-12
93,norton shores,43.1689,-86.2639,13.05,82,100,4.12,US,2023-06-12
94,aasiaat,68.7098,-52.8699,1.18,81,100,12.18,GL,2023-06-12
95,lospalos,-8.5186,127.0025,21.83,81,14,3.77,TL,2023-06-12
96,mount pearl,47.5166,-52.7813,6.58,95,100,10.8,CA,2023-06-12
97,phulbani,20.4667,84.2333,34.75,24,94,1.23,IN,2023-06-12
98,nagqu,31.5,92.0,6.75,68,100,3.09,CN,2023-06-12
99,khuzdar,27.7384,66.6434,34.66,21,1,8.74,PK,2023-06-12
100,iskateley,67.6803,53.1512,14.79,45,100,5.33,RU,2023-06-12
101,blackmans bay,-43.0167,147.3167,9.18,83,99,3.1,AU,2023-06-12
102,xinqing,48.2333,129.5,12.41,97,26,1.96,CN,2023-06-12
103,steinkjer,64.193,11.3851,18.52,41,4,5.19,NO,2023-06-12
104,rio tuba,8.5061,117.4317,28.72,77,100,0.84,PH,2023-06-12
105,san antonio de pale,-1.4014,5.6325,24.83,87,100,4.04,GQ,2023-06-12
106,naryn,41.4287,75.9911,17.19,61,100,2.63,KG,2023-06-12
107,horta,38.5333,-28.6333,20.01,97,75,6.26,PT,2023-06-12
108,cabo san lucas,22.8909,-109.9124,25.17,35,0,5.14,MX,2023-06-12
109,yuzhno-kurilsk,44.0306,145.8556,11.57,98,43,4.18,RU,2023-06-12
110,kelme,55.6339,22.9342,21.01,35,82,5.12,LT,2023-06-12
111,verkhovazh'ye,60.7472,42.0465,20.76,34,70,3.54,RU,2023-06-12
112,caraballeda,10.6112,-66.8522,31.03,76,51,2.57,VE,2023-06-12
113,punta arenas,-53.15,-70.9167,5.06,81,20,10.29,CL,2023-06-12
114,colonia,50.9333,6.95,30.53,29,0,3.09,DE,2023-06-12
115,adelaide,-34.9333,138.6,14.07,79,75,9.26,AU,2023-06-12
116,shimoda,34.6667,138.95,21.72,94,99,4.97,JP,2023-06-12
117,saint-francois,46.4154,3.9054,26.69,54,20,1.54,FR,2023-06-12
118,courtenay,49.6866,-124.9936,14.4,67,75,3.09,CA,2023-06-12
119,mazamari,-11.3258,-74.5308,21.74,89,29,0.46,PE,2023-06-12
120,minas de marcona,-15.2119,-75.1103,12.19,85,66,6.74,PE,2023-06-12
121,gonzales,30.2385,-90.9201,28.11,92,0,1.34,US,2023-06-12
122,garissa,-0.4536,39.6401,33.53,28,77,8.64,KE,2023-06-12
123,stanley,54.868,-1.6985,22.01,65,0,5.14,GB,2023-06-12
124,tiksi,71.6872,128.8694,0.19,84,60,2.64,RU,2023-06-12
125,rio grande,-32.035,-52.0986,9.06,63,0,6.49,BR,2023-06-12
126,konstantinovka,49.6167,127.9833,17.12,90,16,2.16,RU,2023-06-12
127,jamestown,42.097,-79.2353,18.34,79,100,4.12,US,2023-06-12
128,ataq,14.5377,46.8319,37.27,8,74,7.03,YE,2023-06-12
129,kalengwa,-13.4659,25.0027,30.27,19,8,2.0,ZM,2023-06-12
130,naze,28.3667,129.4833,23.51,89,100,1.1,JP,2023-06-12
131,brisas de zicatela,15.8369,-97.0419,27.29,78,40,3.09,MX,2023-06-12
132,dudinka,69.4058,86.1778,11.46,46,36,6.3,RU,2023-06-12
133,mambulo,13.7167,123.05,27.18,88,100,3.1,PH,2023-06-12
134,lamar,33.6668,-95.5836,22.58,100,0,5.14,US,2023-06-12
135,edinburgh of the seven seas,-37.0676,-12.3116,16.63,92,100,14.91,SH,2023-06-12
136,dunedin,-45.8742,170.5036,9.89,83,100,3.13,NZ,2023-06-12
137,tazovsky,67.4667,78.7,4.19,89,100,5.92,RU,2023-06-12
138,brookings,44.3114,-96.7984,17.43,71,0,2.68,US,2023-06-12
139,badger,64.8,-147.5333,11.93,74,75,2.06,US,2023-06-12
140,changji,44.0167,87.3167,26.44,47,20,4.0,CN,2023-06-12
141,georgetown,5.4112,100.3354,30.97,69,20,4.63,MY,2023-06-12
142,benguela,-12.5763,13.4055,24.41,72,25,4.93,AO,2023-06-12
143,karoi,-16.8099,29.6925,25.2,26,18,2.82,ZW,2023-06-12
144,ponnamaravati,10.3,78.55,26.97,82,97,2.23,IN,2023-06-12
145,ust-nera,64.5667,143.2,14.39,89,100,3.08,RU,2023-06-12
146,primorskiy,43.0983,131.5875,12.28,99,100,1.51,RU,2023-06-12
147,kisangani,0.5167,25.2,34.11,38,66,0.36,CD,2023-06-12
148,xining,36.6167,101.7667,11.31,82,100,0.32,CN,2023-06-12
149,cambria,35.5641,-121.0808,14.41,87,99,0.25,US,2023-06-12
150,atafu village,-8.5421,-172.5159,28.95,74,51,6.12,TK,2023-06-12
151,aioun,16.6614,-9.6149,41.35,10,16,6.52,MR,2023-06-12
152,embi,48.8264,58.1442,32.03,16,100,5.31,KZ,2023-06-12
153,pisco,-13.7,-76.2167,17.79,82,28,3.09,PE,2023-06-12
154,anadyr,64.75,177.4833,5.28,80,0,4.0,RU,2023-06-12
155,torre de moncorvo,41.1792,-7.0358,25.59,41,82,4.13,PT,2023-06-12
156,remire-montjoly,4.9167,-52.2667,28.02,83,20,1.54,GF,2023-06-12
157,beloha,-25.1667,45.05,25.09,50,8,3.46,MG,2023-06-12
158,nova vicosa,-17.8919,-39.3719,26.46,66,0,3.38,BR,2023-06-12
159,buala,-8.145,159.5921,26.75,85,60,1.8,SB,2023-06-12
160,karratha,-20.7377,116.8463,22.14,37,0,2.92,AU,2023-06-12
161,whitehorse,60.7161,-135.0538,8.43,65,20,2.06,CA,2023-06-12
162,iquique,-20.2208,-70.1431,19.02,75,53,0.99,CL,2023-06-12
163,ar rass,25.8694,43.4973,39.87,7,0,7.29,SA,2023-06-12
164,hadibu,12.65,54.0333,30.27,69,100,7.82,YE,2023-06-12
165,kruisfontein,-34.0033,24.7314,17.16,64,4,11.69,ZA,2023-06-12
166,tongchuan,35.0806,109.0897,22.64,43,10,2.3,CN,2023-06-12
167,murzuq,25.9155,13.9184,39.06,12,0,7.58,LY,2023-06-12
168,petropavlovsk-kamchatsky,53.0452,158.6483,10.33,71,0,1.0,RU,2023-06-12
169,adelia maria,-33.6315,-64.021,3.13,55,0,1.79,AR,2023-06-12
170,nhamunda,-2.1861,-56.7131,29.15,68,1,2.26,BR,2023-06-12
171,fort bragg,35.139,-79.006,23.23,96,100,4.12,US,2023-06-12
172,olonkinbyen,70.9221,-8.7187,1.08,84,48,3.63,SJ,2023-06-12
173,marica,-22.9194,-42.8186,24.97,73,2,2.67,BR,2023-06-12
174,holualoa,19.6228,-155.9522,21.91,88,40,2.57,US,2023-06-12
175,betio village,1.358,172.9211,28.02,77,46,4.31,KI,2023-06-12
176,shahr-e babak,30.1165,55.1186,32.1,13,42,3.71,IR,2023-06-12
177,kapa'a,22.0752,-159.319,24.18,90,75,4.12,US,2023-06-12
178,porto seguro,-16.4497,-39.0647,26.29,73,75,4.63,BR,2023-06-12
179,mount gambier,-37.8333,140.7667,12.38,64,100,5.37,AU,2023-06-12
180,ondjiva,-17.0667,15.7333,27.02,17,5,2.57,AO,2023-06-12
181,luderitz,-26.6481,15.1594,18.5,62,1,4.8,NA,2023-06-12
182,grand-lahou,5.1367,-5.0242,28.49,62,96,3.94,CI,2023-06-12
183,karasburg,-28.0167,18.75,13.25,52,24,6.21,NA,2023-06-12
184,stephenville,32.2207,-98.2023,23.97,80,0,4.63,US,2023-06-12
185,charcas,23.1333,-101.1167,18.81,71,5,1.0,MX,2023-06-12
186,invercargill,-46.4,168.35,10.39,89,95,4.05,NZ,2023-06-12
187,gaomi,36.3833,119.7528,22.72,48,97,0.62,CN,2023-06-12
188,vorgashor,67.5833,63.95,8.93,39,78,6.86,RU,2023-06-12
189,alaghsas,17.0187,8.0168,38.94,37,75,2.06,NE,2023-06-12
190,mto wa mbu,-3.35,35.85,29.72,34,53,1.39,TZ,2023-06-12
191,st. john's,47.5649,-52.7093,7.04,96,100,10.8,CA,2023-06-12
192,smithers,54.7804,-127.1743,11.18,71,100,1.03,CA,2023-06-12
193,bella vista,36.4295,-94.2316,18.14,91,0,3.09,US,2023-06-12
194,mantua,45.1667,10.7833,29.49,56,2,2.68,IT,2023-06-12
195,galliano,29.4422,-90.2992,28.0,73,65,3.99,US,2023-06-12
196,quellon,-43.1167,-73.6167,7.14,81,75,2.06,CL,2023-06-12
197,sanctuary point,-35.1114,150.629,15.42,68,7,2.46,AU,2023-06-12
198,nosy varika,-20.5833,48.5333,23.99,75,62,2.7,MG,2023-06-12
199,enriquillo,17.9,-71.2333,28.82,73,10,6.54,DO,2023-06-12
200,camilla,31.2313,-84.2105,24.92,84,100,4.77,US,2023-06-12
201,gokwe,-18.2048,28.9349,26.19,21,17,3.41,ZW,2023-06-12
202,susuman,62.7833,148.1667,16.29,61,100,2.04,RU,2023-06-12
203,san blas,21.5167,-105.2667,21.94,77,34,0.74,MX,2023-06-12
204,rikaze,29.25,88.8833,18.12,36,67,3.31,CN,2023-06-12
205,kenai,60.5544,-151.2583,6.19,95,100,1.54,US,2023-06-12
206,sovetskaya gavan',48.9723,140.2878,8.25,96,100,1.78,RU,2023-06-12
207,bonthe,7.5264,-12.505,26.65,82,100,3.64,SL,2023-06-12
208,tanjung pandan,-2.75,107.65,26.67,85,100,3.32,ID,2023-06-12
209,forde,61.4522,5.8572,17.41,63,75,3.6,NO,2023-06-12
210,kirensk,57.7853,108.1119,10.49,59,5,3.8,RU,2023-06-12
211,paita,-5.0892,-81.1144,22.76,80,9,6.48,PE,2023-06-12
212,lusambo,-4.9667,23.45,35.97,25,61,1.37,CD,2023-06-12
213,malyye derbety,47.9547,44.6808,32.84,23,34,0.82,RU,2023-06-12
214,as sulayyil,20.4607,45.5779,43.14,10,99,4.26,SA,2023-06-12
215,sawakin,19.1059,37.3321,35.84,37,30,4.42,SD,2023-06-12
216,xichang,27.8964,102.2634,15.26,89,100,0.11,CN,2023-06-12
217,porangatu,-13.4408,-49.1486,30.73,39,4,1.72,BR,2023-06-12
218,praia da vitoria,38.7333,-27.0667,21.14,94,40,10.01,PT,2023-06-12
219,tidjikja,18.5564,-11.4271,39.78,10,75,6.05,MR,2023-06-12
220,solnechnyy,50.7214,136.6319,10.37,83,5,1.15,RU,2023-06-12
221,ridgecrest,35.6225,-117.6709,15.92,66,75,2.06,US,2023-06-12
222,namdrik,5.5994,168.1028,28.79,75,100,8.53,MH,2023-06-12
223,dalai,45.5,124.3,19.1,55,100,2.26,CN,2023-06-12
224,nadym,65.5333,72.5167,2.78,96,100,10.27,RU,2023-06-12
225,thunder bay,48.4001,-89.3168,11.99,62,20,1.03,CA,2023-06-12
226,portland,45.5234,-122.6762,16.02,88,0,0.0,US,2023-06-12
227,page,36.9147,-111.4558,18.04,34,0,2.57,US,2023-06-12
228,kodiak,57.79,-152.4072,2.73,93,0,1.54,US,2023-06-12
229,bilibino,68.0546,166.4372,10.9,90,100,1.35,RU,2023-06-12
230,felipe carrillo puerto,19.5833,-88.05,28.05,87,11,1.91,MX,2023-06-12
231,severnoye,56.3491,78.3619,16.18,47,2,4.09,RU,2023-06-12
232,tarawa,1.419,172.984,28.05,83,40,2.06,KI,2023-06-12
233,castillos,-34.1667,-53.8333,8.26,50,0,5.34,UY,2023-06-12
234,daru,-9.0763,143.2092,25.64,86,100,5.98,PG,2023-06-12
235,tari,12.4086,4.4914,31.78,51,70,4.37,NG,2023-06-12
236,college,64.8569,-147.8028,11.97,66,75,2.06,US,2023-06-12
237,poronaysk,49.2167,143.1167,8.61,97,100,2.57,RU,2023-06-12
238,vermillion,42.7794,-96.9292,14.33,70,0,2.35,US,2023-06-12
239,hammerfest,70.6634,23.6821,15.25,36,0,4.63,NO,2023-06-12
240,la ronge,55.1001,-105.2842,19.14,68,100,3.6,CA,2023-06-12
241,biltine,14.5333,20.9167,35.21,29,100,1.09,TD,2023-06-12
242,bardai,11.65,7.2333,29.82,47,100,3.19,NG,2023-06-12
243,inhambane,-23.865,35.3833,25.99,65,20,7.2,MZ,2023-06-12
244,happy valley-goose bay,53.3168,-60.3315,12.17,66,20,1.54,CA,2023-06-12
245,canutama,-6.5339,-64.3831,26.89,82,98,0.78,BR,2023-06-12
246,buturlino,55.5667,44.8974,15.88,54,78,5.59,RU,2023-06-12
247,goroka,-6.0834,145.3873,15.38,97,60,0.6,PG,2023-06-12
248,sikasso,10.9167,-7.0,33.77,42,84,4.16,ML,2023-06-12
249,tazacorte,28.629,-17.9293,24.54,76,75,2.57,ES,2023-06-12
250,barinitas,8.7622,-70.4111,20.71,77,100,0.88,VE,2023-06-12
251,murashi,59.3999,48.9615,16.34,39,72,2.7,RU,2023-06-12
252,isafjordur,66.0755,-23.124,13.02,50,20,6.69,IS,2023-06-12
253,klaksvik,62.2266,-6.589,11.51,68,0,1.77,FO,2023-06-12
254,tilcara,-23.5776,-65.3509,5.63,29,8,1.42,AR,2023-06-12
255,okhotsk,59.3833,143.3,7.75,89,100,5.05,RU,2023-06-12
256,totness,5.8833,-56.3167,27.76,77,52,3.29,SR,2023-06-12
257,bikenibeu village,1.3673,173.1241,27.98,83,40,2.06,KI,2023-06-12
258,qusmuryn,52.4503,64.6311,18.97,38,31,6.57,KZ,2023-06-12
259,tarauaca,-8.1614,-70.7656,25.02,90,68,0.97,BR,2023-06-12
260,lisala,2.15,21.5167,32.09,47,100,1.66,CD,2023-06-12
261,alofi,-19.0595,-169.9187,22.94,88,100,1.03,NU,2023-06-12
262,rojhan,28.6868,69.9534,42.76,18,0,7.25,PK,2023-06-12
263,haiku-pauwela,20.9219,-156.3051,23.91,76,20,4.12,US,2023-06-12
264,murun-kuren,49.6342,100.1625,15.42,85,100,0.82,MN,2023-06-12
265,argo,37.6333,22.7333,26.55,67,97,2.17,GR,2023-06-12
266,baruun-urt,46.6806,113.2792,20.73,33,14,2.76,MN,2023-06-12
267,san patricio,28.017,-97.5169,29.37,88,17,4.32,US,2023-06-12
268,constantia,44.1833,28.65,24.38,68,74,5.76,RO,2023-06-12
269,arkhara,49.4212,130.0842,16.41,90,2,1.98,RU,2023-06-12
270,lihue,21.9789,-159.3672,23.77,88,75,4.12,US,2023-06-12
271,cumbum,9.7333,77.3,26.28,77,100,3.67,IN,2023-06-12
272,ketchikan,55.3422,-131.6461,12.26,94,100,0.0,US,2023-06-12
273,nemuro,43.3236,145.575,11.46,99,83,4.37,JP,2023-06-12
274,kollam,8.8833,76.6,26.39,86,100,4.37,IN,2023-06-12
275,rakops,-21.0167,24.3333,27.74,15,8,4.54,BW,2023-06-12
276,xudat,41.631,48.681,26.39,54,65,2.61,AZ,2023-06-12
277,tapah road,4.1667,101.2,29.99,86,82,1.19,MY,2023-06-12
278,gedo,9.0167,37.45,18.33,66,100,0.48,ET,2023-06-12
279,kailua-kona,19.6406,-155.9956,23.98,87,40,2.57,US,2023-06-12
280,vila franca do campo,37.7167,-25.4333,20.23,89,100,5.27,PT,2023-06-12
281,askoy,60.4092,5.226,19.42,70,0,4.12,NO,2023-06-12
282,mbekenyera,-10.0,38.9833,28.84,39,5,1.61,TZ,2023-06-12
283,bredasdorp,-34.5322,20.0403,14.12,68,100,9.37,ZA,2023-06-12
284,luena,-11.7833,19.9167,29.1,21,29,2.06,AO,2023-06-12
285,carutapera,-1.195,-46.02,29.47,67,1,3.81,BR,2023-06-12
286,carnarvon,-24.8667,113.6333,18.45,39,0,7.5,AU,2023-06-12
287,chulakkurgan,43.765,69.1814,30.52,11,0,10.16,KZ,2023-06-12
288,shahrak,34.1074,64.3052,23.13,25,31,8.77,AF,2023-06-12
289,qui nhon,13.7667,109.2333,29.41,74,100,2.14,VN,2023-06-12
290,amga,60.8953,131.9608,11.04,67,100,3.94,RU,2023-06-12
291,labytnangi,66.6572,66.4183,10.09,38,5,7.56,RU,2023-06-12
292,sompeta,18.9333,84.6,32.41,63,99,3.81,IN,2023-06-12
293,banfora,10.6333,-4.7667,31.57,50,99,3.81,BF,2023-06-12
294,queenstown,-31.8976,26.8753,14.47,43,10,9.75,ZA,2023-06-12
295,tofol,5.3248,163.0078,28.66,78,100,8.14,FM,2023-06-12
296,simplicio mendes,-7.8539,-41.9103,30.4,43,3,4.82,BR,2023-06-12
297,punaauia,-17.6333,-149.6,22.8,83,20,2.06,PF,2023-06-12
298,mana,5.6592,-53.7767,28.18,72,45,3.05,GF,2023-06-12
299,praia,14.9215,-23.5087,30.3,54,20,10.8,CV,2023-06-12
300,aitape,-3.1374,142.3475,26.28,89,75,2.67,PG,2023-06-12
301,arteche,12.2645,125.4048,26.87,88,99,2.6,PH,2023-06-12
302,langsa,4.4683,97.9683,26.06,87,71,0.81,ID,2023-06-12
303,bomdila,27.25,92.4,15.27,99,92,0.93,IN,2023-06-12
304,ribeira grande,38.5167,-28.7,20.43,94,75,6.26,PT,2023-06-12
305,pundong,-7.9522,110.3486,25.58,86,70,4.68,ID,2023-06-12
306,vilyuysk,63.7553,121.6247,6.18,61,7,2.08,RU,2023-06-12
307,mayya,61.7333,130.2811,8.62,52,100,4.83,RU,2023-06-12
308,cheney,47.4874,-117.5758,18.47,84,75,2.06,US,2023-06-12
309,codrington,-38.2667,141.9667,13.78,55,84,8.32,AU,2023-06-12
310,ji'an,27.1172,114.9793,26.83,70,100,1.74,CN,2023-06-12
311,gornopravdinsk,60.05,69.9,11.63,53,100,3.47,RU,2023-06-12
312,egilsstadir,65.2653,-14.3948,17.95,39,0,4.12,IS,2023-06-12
313,mersa matruh,31.3525,27.2453,25.11,65,0,5.14,EG,2023-06-12
314,ar ruways,24.1103,52.7306,37.31,34,7,4.56,AE,2023-06-12
315,wanning,18.8003,110.3967,25.36,97,100,1.14,CN,2023-06-12
316,aral,40.5156,81.2636,38.07,8,72,1.58,CN,2023-06-12
317,flying fish cove,-10.4217,105.6791,25.82,88,100,6.17,CX,2023-06-12
318,sur,22.5667,59.5289,32.44,57,100,3.4,OM,2023-06-12
319,mascara,35.3966,0.1403,31.51,32,5,5.35,DZ,2023-06-12
320,san isidro,-12.1167,-77.05,22.23,75,75,3.09,PE,2023-06-12
321,moose jaw,50.4001,-105.5344,17.14,63,75,4.12,CA,2023-06-12
322,vega de alatorre,20.0333,-96.6333,27.83,88,52,2.49,MX,2023-06-12
323,la'ie,21.6477,-157.9253,26.98,80,28,1.34,US,2023-06-12
324,skerries,53.5828,-6.1083,18.17,83,100,1.77,IE,2023-06-12
325,port saint john's,-31.6229,29.5448,21.54,42,100,3.77,ZA,2023-06-12
326,cole harbour,44.6724,-63.4751,23.99,51,40,4.63,CA,2023-06-12
327,chul'man,56.8479,124.9104,7.49,90,100,4.9,RU,2023-06-12
328,port hedland,-20.3167,118.5667,21.03,52,0,2.57,AU,2023-06-12
329,tadine,-21.55,167.8833,20.41,64,50,4.49,NC,2023-06-12
330,san luis de la loma,17.2706,-100.8939,27.32,69,97,1.29,MX,2023-06-12
331,harnai,30.1005,67.9374,36.58,15,0,4.33,PK,2023-06-12
332,guerrero negro,27.9769,-114.0611,15.3,90,2,5.2,MX,2023-06-12
333,jinchang,38.4953,102.1739,24.81,14,0,5.12,CN,2023-06-12
334,fortuna,40.5982,-124.1573,12.42,96,100,0.0,US,2023-06-12
335,tobol'sk,58.2,68.2667,13.74,44,100,3.68,RU,2023-06-12
336,hilo,19.7297,-155.09,22.57,90,0,1.79,US,2023-06-12
337,trincomalee,8.5711,81.2335,30.9,66,99,8.6,LK,2023-06-12
338,nouadhibou,20.931,-17.0347,21.99,68,0,10.29,MR,2023-06-12
339,callao,-12.0667,-77.15,22.62,68,75,3.09,PE,2023-06-12
340,christchurch,-43.5333,172.6333,5.53,90,100,0.51,NZ,2023-06-12
341,kamina,-8.7386,24.9906,31.23,21,100,0.98,CD,2023-06-12
342,ciudad madero,22.2667,-97.8333,28.36,89,75,3.86,MX,2023-06-12
343,laoang,12.5,125.0167,25.52,92,100,1.11,PH,2023-06-12
344,al qaryatayn,34.2296,37.2407,27.19,32,93,8.02,SY,2023-06-12
345,bamboo flat,11.7,92.7167,29.05,84,75,4.12,IN,2023-06-12
346,wuhai,39.6647,106.8122,24.61,21,35,8.31,CN,2023-06-12
347,zyryanovsk,49.7386,84.2719,22.0,70,0,1.34,KZ,2023-06-12
348,lodja,-3.4833,23.4333,35.11,31,100,0.71,CD,2023-06-12
349,vakarai,55.6035,23.8213,21.29,36,100,4.92,LT,2023-06-12
350,yangi qal'ah,37.4657,69.6113,36.96,18,0,4.67,AF,2023-06-12
351,atbara,17.7022,33.9864,40.41,19,72,3.04,SD,2023-06-12
352,dunkwa,5.9656,-1.78,30.69,50,98,2.01,GH,2023-06-12
353,saldanha,-33.0117,17.9442,17.03,66,100,6.49,ZA,2023-06-12
354,wasselonne,48.6372,7.4473,29.6,28,0,6.17,FR,2023-06-12
355,lata,40.1629,-8.3327,27.49,49,98,3.73,PT,2023-06-12
356,jayapura,-2.5333,140.7,25.66,90,100,2.04,ID,2023-06-12
357,nova sintra,14.8667,-24.7167,22.39,80,74,8.96,CV,2023-06-12
358,kalabo,-14.97,22.6814,31.57,16,8,1.99,ZM,2023-06-12
359,beyneu,45.3167,55.2,36.01,9,63,10.38,KZ,2023-06-12
360,haci zeynalabdin,40.6233,49.5586,29.08,51,0,2.14,AZ,2023-06-12
361,ghat,24.9647,10.1728,41.12,8,0,4.41,LY,2023-06-12
362,longford,53.7333,-7.8,20.6,85,100,0.79,IE,2023-06-12
363,george town,5.4112,100.3354,30.97,69,20,4.63,MY,2023-06-12
364,gillette,44.2911,-105.5022,12.19,85,75,4.12,US,2023-06-12
365,barra de santo antonio,-9.4047,-35.5072,25.6,80,8,4.09,BR,2023-06-12
366,koulikoro,14.0,-7.75,35.17,33,85,1.58,ML,2023-06-12
367,ankazoabo,-22.2833,44.5167,27.0,26,0,3.63,MG,2023-06-12
368,chapaev,50.2,51.1667,28.78,33,100,6.54,KZ,2023-06-12
369,freeport,40.6576,-73.5832,22.36,78,0,5.14,US,2023-06-12
370,linxia chengguanzhen,35.6003,103.2064,15.29,63,31,2.56,CN,2023-06-12
371,plettenberg bay,-34.0527,23.3716,14.8,71,61,9.11,ZA,2023-06-12
372,matthew town,20.95,-73.6667,29.19,74,13,6.29,BS,2023-06-12
373,lamu,-2.2717,40.902,29.12,72,83,6.44,KE,2023-06-12
374,guozhen,34.3659,107.359,23.15,38,39,1.78,CN,2023-06-12
375,hosszupalyi,47.393,21.7328,22.0,46,20,7.72,HU,2023-06-12
376,manggar,-2.8833,108.2667,27.84,81,37,5.21,ID,2023-06-12
377,mejit,10.2753,170.8646,27.9,79,90,8.84,MH,2023-06-12
378,utrik,11.2278,169.8474,27.56,80,89,9.76,MH,2023-06-12
379,marsabit,2.3284,37.9899,26.73,31,81,5.13,KE,2023-06-12
380,atuntaqui,0.3333,-78.2167,15.25,69,37,2.2,EC,2023-06-12
381,luanda,-8.8368,13.2343,27.0,69,40,4.63,AO,2023-06-12
382,chita,52.0333,113.55,21.94,40,98,3.0,RU,2023-06-12
383,sitka,57.0531,-135.33,8.94,87,100,5.14,US,2023-06-12
384,maceio,-9.6658,-35.7353,25.69,83,75,7.2,BR,2023-06-12
385,pudasjarvi,65.3833,26.9167,20.53,40,98,6.14,FI,2023-06-12
386,paraiso,9.8383,-83.8656,22.45,76,91,1.15,CR,2023-06-12
387,sidney,-33.8679,151.2073,15.61,84,100,2.57,AU,2023-06-12
388,aldinga beach,-35.2793,138.4604,14.26,84,3,9.51,AU,2023-06-12
389,targovishte,43.2592,26.5892,22.11,60,98,4.1,BG,2023-06-12
390,westport,41.1415,-73.3579,23.12,80,100,0.89,US,2023-06-12
391,kavaratti,10.5669,72.642,29.56,78,100,9.82,IN,2023-06-12
392,vorkuta,67.5,64.0,9.16,39,80,6.99,RU,2023-06-12
393,amuntai,-2.4177,115.2494,24.52,96,100,0.43,ID,2023-06-12
394,uiju,40.1994,124.5317,15.75,83,100,1.38,KP,2023-06-12
395,yasnyy,51.0333,59.8742,29.55,26,91,2.45,RU,2023-06-12
396,dodworth,53.5431,-1.5278,29.94,60,16,4.25,GB,2023-06-12
397,nikolayevsk-on-amure,53.1406,140.73,8.67,96,100,0.89,RU,2023-06-12
398,kashary,49.04,41.0056,19.77,66,100,5.32,RU,2023-06-12
399,nuuk,64.1835,-51.7216,4.34,87,75,12.86,GL,2023-06-12
400,mancio lima,-7.6142,-72.8958,28.04,78,40,2.06,BR,2023-06-12
401,revda,56.801,59.9303,15.02,32,100,3.81,RU,2023-06-12
402,ta`u,-14.2336,-169.5144,27.07,80,14,7.6,AS,2023-06-12
403,kourou,5.1552,-52.6478,28.03,75,36,3.32,GF,2023-06-12
404,nerekhta,57.4588,40.5747,18.94,48,10,3.77,RU,2023-06-12
405,cherlak,54.155,74.8055,18.45,40,100,4.45,RU,2023-06-12
406,nar'yan-mar,67.6713,53.087,14.9,46,100,5.35,RU,2023-06-12
407,kargasok,59.0556,80.8572,16.72,33,41,5.75,RU,2023-06-12
408,mossel bay,-34.1831,22.146,16.96,67,29,11.64,ZA,2023-06-12
409,nantucket,41.2835,-70.0995,20.61,93,0,3.09,US,2023-06-12
410,midvagur,62.0511,-7.1939,11.46,82,0,6.69,FO,2023-06-12
411,malango,-2.9627,119.9001,20.11,99,92,0.53,ID,2023-06-12
412,ancud,-41.8697,-73.8203,4.71,85,0,2.58,CL,2023-06-12
413,acapulco de juarez,16.8634,-99.8901,26.9,83,75,0.0,MX,2023-06-12
414,ola,59.5833,151.2833,5.83,97,100,3.29,RU,2023-06-12
415,victorica,-36.2151,-65.4359,4.56,41,0,2.21,AR,2023-06-12
416,tezu,27.9167,96.1667,25.13,90,73,1.26,IN,2023-06-12
417,tindouf,27.6711,-8.1474,34.25,21,0,7.72,DZ,2023-06-12
418,kiruna,67.8557,20.2251,13.51,58,75,8.23,SE,2023-06-12
419,salistea de sus,47.65,24.35,12.42,85,100,1.82,RO,2023-06-12
420,mont-dore,-22.2833,166.5833,21.11,99,1,2.53,NC,2023-06-12
421,lecheng,25.1238,113.3254,27.19,74,47,1.1,CN,2023-06-12
422,touros,-5.1989,-35.4608,28.09,71,21,5.71,BR,2023-06-12
423,katsuren-haebaru,26.3369,127.8719,26.21,100,100,1.54,JP,2023-06-12
424,kabalo,-6.05,26.9167,36.33,21,55,0.59,CD,2023-06-12
425,sambava,-14.2667,50.1667,25.87,65,11,3.55,MG,2023-06-12
426,tralee,52.2704,-9.7026,20.14,68,100,3.09,IE,2023-06-12
427,isla mujeres,21.2311,-86.731,30.09,85,1,4.65,MX,2023-06-12
428,palmer,42.1584,-72.3287,22.65,74,100,3.6,US,2023-06-12
429,phibun mangsahan,15.2447,105.2291,27.99,82,100,3.78,TH,2023-06-12
430,makhambet,47.6667,51.5833,35.57,12,91,4.08,KZ,2023-06-12
431,broken hill,-31.95,141.4333,12.87,50,2,5.99,AU,2023-06-12
432,tucuma,-0.1833,-50.05,28.59,73,0,2.59,BR,2023-06-12
433,souillac,-20.5167,57.5167,26.21,78,40,3.09,MU,2023-06-12
434,sarikei,2.1167,111.5167,24.68,90,93,1.14,MY,2023-06-12
435,andergrove,-21.0833,149.1833,19.25,87,59,1.93,AU,2023-06-12
436,wenchang,30.904,118.4887,23.89,75,97,2.41,CN,2023-06-12
437,jieshi,22.8134,115.8257,27.64,84,100,3.89,CN,2023-06-12
438,malanje,-9.5402,16.341,31.73,24,37,1.14,AO,2023-06-12
439,cascais,38.6979,-9.4215,26.9,80,40,7.2,PT,2023-06-12
440,kinablangan,7.6947,126.5503,26.95,85,18,2.72,PH,2023-06-12
441,saint-joseph,-21.3667,55.6167,24.15,80,32,2.47,RE,2023-06-12
442,vadso,70.0744,29.7487,19.49,41,0,1.54,NO,2023-06-12
443,mildura,-34.2,142.15,11.15,81,4,5.71,AU,2023-06-12
444,piton saint-leu,-21.2196,55.3151,24.04,78,100,3.6,RE,2023-06-12
445,buka,40.8108,69.1986,33.0,27,86,4.87,UZ,2023-06-12
446,marsh harbour,26.5412,-77.0636,27.33,73,89,6.33,BS,2023-06-12
447,krasnogorskoye,52.2953,86.1979,19.15,75,8,1.13,RU,2023-06-12
448,tsetserleg,47.475,101.4542,14.42,78,100,3.84,MN,2023-06-12
449,antonio enes,-16.2325,39.9086,26.89,58,2,4.32,MZ,2023-06-12
450,liwale,-9.7667,37.9333,26.88,43,80,0.99,TZ,2023-06-12
451,burdur,37.7203,30.2908,16.39,82,75,6.17,TR,2023-06-12
452,suntar,62.1444,117.6319,7.63,60,9,1.21,RU,2023-06-12
453,netphen,50.9167,8.1,28.14,33,42,0.89,DE,2023-06-12
454,naja' hammadi,26.0495,32.2414,40.36,13,0,6.62,EG,2023-06-12
455,harper,4.375,-7.7169,27.34,69,49,5.33,LR,2023-06-12
456,chos malal,-37.3781,-70.2709,4.2,36,0,0.28,AR,2023-06-12
457,greymouth,-42.4667,171.2,7.14,91,62,2.23,NZ,2023-06-12
458,marsa alam,25.0757,34.8918,32.23,44,0,5.13,EG,2023-06-12
459,ressano garcia,-25.442,31.9913,31.44,16,0,4.69,MZ,2023-06-12
460,bokoro,12.3807,17.0568,35.6,36,84,1.08,TD,2023-06-12
461,muli,2.9167,73.5667,28.95,78,69,7.03,MV,2023-06-12
462,howrah,22.5892,88.3103,29.0,70,75,2.06,IN,2023-06-12
463,vila velha,-20.3297,-40.2925,26.97,76,0,4.12,BR,2023-06-12
464,salalah,17.0151,54.0924,31.05,84,75,6.17,OM,2023-06-12
465,camocim,-2.9022,-40.8411,29.42,62,0,5.43,BR,2023-06-12
466,al kharijah,25.4514,30.5464,41.23,13,0,7.01,EG,2023-06-12
467,huruta,8.15,39.35,23.36,47,100,3.65,ET,2023-06-12
468,polyarnyy,69.1989,33.4478,16.86,42,100,5.97,RU,2023-06-12
469,cikupa,-6.2364,106.5083,29.03,56,17,2.63,ID,2023-06-12
470,aykhal,66.0,111.5,10.62,47,10,2.65,RU,2023-06-12
471,chibougamau,49.9168,-74.3659,18.79,63,0,1.03,CA,2023-06-12
472,kismayo,-0.3582,42.5454,28.06,63,97,8.54,SO,2023-06-12
473,marksville,31.128,-92.0662,26.59,88,62,2.55,US,2023-06-12
474,tsiombe,-25.3,45.4833,23.49,65,18,5.5,MG,2023-06-12
475,dongola,19.1667,30.4833,42.47,13,5,2.93,SD,2023-06-12
476,vila do maio,15.1333,-23.2167,30.44,85,7,5.89,CV,2023-06-12
477,lampasas,31.2168,-98.2336,25.9,88,0,0.0,US,2023-06-12
478,rudnichnyy,59.617,52.4703,13.88,43,86,3.39,RU,2023-06-12
479,dalandzadgad,43.5708,104.425,25.26,15,16,7.29,MN,2023-06-12
480,alice springs,-23.7,133.8833,13.45,42,0,2.57,AU,2023-06-12
481,brigantine,39.4101,-74.3646,22.8,87,75,4.47,US,2023-06-12
482,al ghayzah,16.2079,52.176,33.56,60,100,5.21,YE,2023-06-12
483,kaoma,-14.7833,24.8,31.22,18,12,2.14,ZM,2023-06-12
484,kone,-21.0595,164.8658,18.67,75,0,1.89,NC,2023-06-12
485,walvis bay,-22.9575,14.5053,20.53,60,0,6.17,NA,2023-06-12
486,pocone,-16.2567,-56.6228,19.04,93,100,3.17,BR,2023-06-12
487,tamanrasset,22.785,5.5228,36.95,12,45,1.03,DZ,2023-06-12
488,selfoss,63.9331,-20.9971,11.14,65,100,4.09,IS,2023-06-12
489,kirakira,-10.4544,161.9205,26.25,87,18,3.21,SB,2023-06-12
490,magadan,59.5667,150.8,5.68,95,95,2.35,RU,2023-06-12
491,bobrovytsya,50.75,31.3833,12.2,72,100,6.33,UA,2023-06-12
492,el calafate,-50.3408,-72.2768,0.45,71,74,4.85,AR,2023-06-12
493,baqubah,33.7485,44.6554,41.93,11,0,7.98,IQ,2023-06-12
494,turriff,57.5384,-2.4593,25.67,74,51,1.99,GB,2023-06-12
495,toppenish,46.3774,-120.3087,21.12,62,100,1.94,US,2023-06-12
496,dural,-33.6833,151.0167,14.88,90,26,2.19,AU,2023-06-12
497,mount hagen,-5.8581,144.2274,15.57,99,89,0.89,PG,2023-06-12
498,maragogi,-9.0122,-35.2225,27.23,75,6,4.4,BR,2023-06-12
499,pacific grove,36.6177,-121.9166,13.74,88,100,1.54,US,2023-06-12
500,mata-utu,-13.2816,-176.1745,27.74,78,57,7.85,WF,2023-06-12
501,cartagena del chaira,1.3349,-74.8429,25.65,77,19,0.59,CO,2023-06-12
502,fort william,56.8165,-5.1121,26.28,59,99,0.48,GB,2023-06-12
503,ulladulla,-35.35,150.4667,10.65,69,24,2.98,AU,2023-06-12
504,grand falls-windsor,48.9332,-55.6649,6.95,93,100,1.34,CA,2023-06-12
505,katsuura,35.1333,140.3,21.88,93,100,4.11,JP,2023-06-12
506,salinopolis,-0.6136,-47.3561,29.32,69,2,5.48,BR,2023-06-12
507,peniche,39.3558,-9.3811,25.6,82,100,7.7,PT,2023-06-12
508,kangding,30.0513,101.9603,12.58,96,99,1.78,CN,2023-06-12
509,banff,51.1762,-115.5698,13.05,87,62,0.51,CA,2023-06-12
510,medemblik,52.7687,5.1062,29.45,32,39,3.17,NL,2023-06-12
511,timbuktu,16.7735,-3.0074,38.71,26,5,3.25,ML,2023-06-12
512,tver,56.8619,35.8931,19.3,37,10,4.85,RU,2023-06-12
513,east london,-33.0153,27.9116,18.52,68,0,6.17,ZA,2023-06-12
514,baneh,35.9975,45.8853,28.13,19,1,4.88,IR,2023-06-12
515,lexington park,38.2668,-76.4538,25.03,85,75,2.57,US,2023-06-12
516,phongsali,21.6833,102.1058,18.51,96,98,0.78,LA,2023-06-12
517,whakatane,-37.9585,176.9854,8.76,98,0,3.66,NZ,2023-06-12
518,wailea,19.8858,-155.123,22.29,87,0,1.54,US,2023-06-12
519,newman,37.3138,-121.0208,15.13,82,63,0.45,US,2023-06-12
520,pecos,31.4229,-103.4932,27.95,68,0,0.0,US,2023-06-12
521,taltal,-25.4,-70.4833,14.83,77,39,0.38,CL,2023-06-12
522,letychiv,49.3826,27.6305,9.55,97,100,3.63,UA,2023-06-12
523,gazli,40.1333,63.45,37.1,10,0,6.04,UZ,2023-06-12
524,tongouson,5.0214,120.1328,28.97,76,4,2.07,PH,2023-06-12
525,new batu batu,5.0667,119.8833,28.69,77,27,2.02,PH,2023-06-12
526,guajara mirim,-10.7828,-65.3394,28.09,74,0,2.06,BR,2023-06-12
527,pindushi,62.9152,34.58,22.94,30,56,5.23,RU,2023-06-12
528,prineville,44.2999,-120.8345,16.73,78,0,0.0,US,2023-06-12
529,yemetsk,63.4721,41.7941,21.86,40,93,4.99,RU,2023-06-12
530,leninskoye,41.7589,69.3864,29.56,38,98,4.54,KZ,2023-06-12
531,giyani,-23.3025,30.7187,31.05,14,0,3.5,ZA,2023-06-12
532,antalaha,-14.9003,50.2788,25.73,64,2,3.32,MG,2023-06-12
533,antsiranana,-12.2787,49.2917,29.42,45,20,6.17,MG,2023-06-12
534,tsengel,49.4783,100.8894,15.93,84,100,1.69,MN,2023-06-12
535,nyandoma,61.669,40.1991,20.66,35,39,4.12,RU,2023-06-12
536,taroa,8.7058,171.2275,28.02,81,96,10.12,MH,2023-06-12
537,kletskaya,49.3145,43.0584,25.82,44,100,7.58,RU,2023-06-12
538,seydi,39.4816,62.9137,37.92,10,0,6.11,TM,2023-06-12
539,azul,-36.777,-59.8585,5.44,75,0,4.83,AR,2023-06-12
540,uttarkashi,30.7333,78.45,23.57,72,40,2.65,IN,2023-06-12
541,bakanas,44.8081,76.2772,29.58,12,57,9.93,KZ,2023-06-12
542,fort saskatchewan,53.7168,-113.2187,18.76,86,0,0.0,CA,2023-06-12
543,san andres,12.5847,-81.7006,29.01,84,20,4.12,CO,2023-06-12
544,sarangani,5.4033,125.4636,29.13,70,52,2.99,PH,2023-06-12
545,bure,10.7,37.0667,22.4,57,55,2.29,ET,2023-06-12
546,kitimat,54.0524,-128.6534,16.21,73,100,1.79,CA,2023-06-12
547,purranque,-40.9167,-73.1667,4.63,95,74,1.63,CL,2023-06-12
548,ankang,32.68,109.0172,21.49,81,100,0.85,CN,2023-06-12
549,ponta delgada,37.7333,-25.6667,20.4,83,40,6.69,PT,2023-06-12
550,banyo,6.75,11.8167,22.63,88,100,0.26,CM,2023-06-12
551,pemangkat,1.1667,108.9667,28.06,79,100,1.81,ID,2023-06-12
552,mutum biyu,8.6333,10.7667,30.62,58,88,3.53,NG,2023-06-12
553,vallenar,-28.5708,-70.7581,11.52,82,4,0.58,CL,2023-06-12
554,prado,-17.3411,-39.2208,25.78,70,2,3.37,BR,2023-06-12
555,cabanas,22.9758,-82.9219,27.51,78,0,3.04,CU,2023-06-12
556,keren,15.7778,38.4581,22.4,78,97,5.33,ER,2023-06-12
557,mili,6.0815,171.735,28.43,76,100,8.81,MH,2023-06-12
558,altoona,40.5187,-78.3947,19.25,88,100,1.95,US,2023-06-12
559,la passe,45.5549,-0.8967,28.71,78,100,3.44,FR,2023-06-12
560,saint-pierre,-21.3393,55.4781,24.76,78,100,3.6,RE,2023-06-12
561,mahanoro,-19.9,48.8,24.6,71,0,2.76,MG,2023-06-12
562,masuguru,-11.3667,38.4167,31.93,26,4,2.02,TZ,2023-06-12
563,chiquimulilla,14.0858,-90.3767,25.95,86,60,1.17,GT,2023-06-12
564,mombetsu,44.3525,143.3525,14.02,89,7,1.54,JP,2023-06-12
565,slave lake,55.2834,-114.769,13.99,72,100,1.54,CA,2023-06-12
566,gidole,5.65,37.3667,19.84,60,91,1.21,ET,2023-06-12
567,carbonear,47.7332,-53.2148,6.9,89,100,7.61,CA,2023-06-12
568,at taraf,25.3628,49.725,47.3,6,8,5.81,SA,2023-06-12
569,russkaya polyana,49.417,31.9201,12.09,86,100,6.8,UA,2023-06-12
570,sikonge,-5.6333,32.7667,30.46,27,60,1.26,TZ,2023-06-12
571,magumeri,12.1131,12.8274,34.83,37,29,2.83,NG,2023-06-12
572,quiberon,47.4841,-3.1196,26.17,72,99,4.15,FR,2023-06-12
573,porto velho,-8.7619,-63.9039,27.03,83,0,1.03,BR,2023-06-12
574,dryden,49.7833,-92.7503,15.16,72,0,2.06,CA,2023-06-12
575,bogale,16.2833,95.4,27.0,80,87,2.78,MM,2023-06-12
576,wurtulla,-26.7568,153.1256,16.7,94,30,2.18,AU,2023-06-12
577,chikmagalur,13.3167,75.7833,24.36,66,24,4.84,IN,2023-06-12
578,coahuayana de hidalgo,18.7,-103.6583,24.36,75,7,1.3,MX,2023-06-12
579,griffith,41.5284,-87.4237,13.5,65,0,5.14,US,2023-06-12
580,taoudenni,22.6783,-3.9836,41.7,8,3,3.24,ML,2023-06-12
581,nyamira,-0.6318,34.6443,22.73,67,100,1.55,KE,2023-06-12
582,pierre,44.3683,-100.351,16.82,76,0,0.0,US,2023-06-12
583,gorontalo,0.5412,123.0595,24.98,93,11,1.49,ID,2023-06-12
584,olinda,-8.0089,-34.8553,27.85,74,40,6.17,BR,2023-06-12
585,cidreira,-30.1811,-50.2056,12.14,69,98,4.49,BR,2023-06-12
586,maricopa,33.0581,-112.0476,22.43,40,0,2.71,US,2023-06-12
587,novodvinsk,64.4165,40.8122,23.2,34,40,5.55,RU,2023-06-12
588,novospasskoye,53.1468,47.7514,10.65,77,100,8.33,RU,2023-06-12
589,lorengau,-2.0226,147.2712,27.61,82,29,3.43,PG,2023-06-12
590,slobodskoy,58.7322,50.1772,16.56,37,92,2.84,RU,2023-06-12
591,anandnagar,27.1,83.2833,37.34,32,68,5.95,IN,2023-06-12
592,karema,-6.8205,30.4389,28.11,51,11,4.03,TZ,2023-06-12
593,jinka,5.65,36.65,24.32,62,79,1.4,ET,2023-06-12
594,mount isa,-20.7333,139.5,12.87,58,100,0.0,AU,2023-06-12
595,mabaruma,8.2,-59.7833,26.6,90,98,1.26,GY,2023-06-12
596,belmonte,-15.8631,-38.8828,26.61,65,13,2.59,BR,2023-06-12
597,pushkinskiye gory,57.0209,28.9103,20.98,30,6,3.82,RU,2023-06-12
598,ak-dovurak,51.1833,90.6,17.64,58,86,3.18,RU,2023-06-12
